{
  "type": "FeatureCollection",
  "features": [
    {
      "type": "Feature",
      "properties": {
        "nom": "Issoire",
        "texte": "« Agir vite et bien »",
        "labelDir": "bottom"
      },
      "geometry": { "type": "Point", "coordinates": [3.2495, 45.5439] }
    },
    {
      "type": "Feature",
      "properties": {
        "nom": "Thionville",
        "texte": "« Qui me regarde s'incline »",
        "labelDir": "left"
      },
      "geometry": { "type": "Point", "coordinates": [6.1681, 49.3578] }
    },
    {
      "type": "Feature",
      "properties": {
        "nom": "Douai",
        "texte": "« Par-delà les terres et l'Océan »",
        "labelDir": "bottom"
      },
      "geometry": { "type": "Point", "coordinates": [3.0794, 50.3714] }
    },
    {
      "type": "Feature",
      "properties": {
        "nom": "Agen",
        "texte": "« Religare et unire sic » (relier et unir ainsi)",
        "labelDir": "bottom"
      },
      "geometry": { "type": "Point", "coordinates": [0.6188, 44.2049] }
    },
    {
      "type": "Feature",
      "properties": {
        "nom": "Lunéville",
        "texte": "« Foudre dans l'azur »",
        "labelDir": "left"
      },
      "geometry": { "type": "Point", "coordinates": [6.4972, 48.5126] }
    },
    {
      "type": "Feature",
      "properties": {
        "nom": "Dieuze",
        "texte": "« Ardent et généreux »",
        "labelDir": "left"
      },
      "geometry": { "type": "Point", "coordinates": [6.7186, 48.8508] }
    },
    {
      "type": "Feature",
      "properties": {
        "nom": "Rennes",
        "texte": "« Pugnare in Tenebris, Vincere in Luminis » (combattre dans les ténèbres, vaincre dans la lumière)",
        "labelDir": "bottom"
      },
      "geometry": { "type": "Point", "coordinates": [-1.7117, 48.0784] }
    },
    {
      "type": "Feature",
      "properties": {
        "nom": "Mutzig",
        "texte": "« Nihil nisi silentium timet » (Rien ne craint que le silence)",
        "labelDir": "right"
      },
      "geometry": { "type": "Point", "coordinates": [7.4914, 48.5403] }
    },
    {
      "type": "Feature",
      "properties": {
        "nom": "Haguenau",
        "texte": "« Nihil affirmat quod non probet » (Il n'affirme rien qu'il ne prouve) — « Toujours prouver »",
        "labelDir": "right"
      },
      "geometry": { "type": "Point", "coordinates": [7.7900, 48.8156] }
    },
    {
      "type": "Feature",
      "properties": {
        "nom": "Paris",
        "texte": "« Tu es l'ancien, sois le meilleur »",
        "labelDir": "bottom"
      },
      "geometry": { "type": "Point", "coordinates": [2.0944, 48.8978] }
    }
  ]
}
