{
  "type": "FeatureCollection",
  "features": [
    {
      "type": "Feature",
      "properties": {
        "nom": "Paris",
        "texte": "Capitale, point de départ du parcours."
      },
      "geometry": { "type": "Point", "coordinates": [2.3522, 48.8566] }
    },
    {
      "type": "Feature",
      "properties": {
        "nom": "Lyon",
        "texte": "Carrefour historique entre Rhône et Saône."
      },
      "geometry": { "type": "Point", "coordinates": [4.8357, 45.7640] }
    },
    {
      "type": "Feature",
      "properties": {
        "nom": "Marseille",
        "texte": "Plus vieux port de France."
      },
      "geometry": { "type": "Point", "coordinates": [5.3698, 43.2965] }
    },
    {
      "type": "Feature",
      "properties": {
        "nom": "Bordeaux",
        "texte": "Capitale mondiale du vin."
      },
      "geometry": { "type": "Point", "coordinates": [-0.5792, 44.8378] }
    },
    {
      "type": "Feature",
      "properties": {
        "nom": "Lille",
        "texte": "Porte du Nord, frontalière de la Belgique."
      },
      "geometry": { "type": "Point", "coordinates": [3.0573, 50.6292] }
    }
  ]
}